[
  {"name": "北京市", "province": "北京市", "lat": 39.9042, "lng": 116.4074, "level": "province"},
  {"name": "上海市", "province": "上海市", "lat": 31.2304, "lng": 121.4737, "level": "province"},
  {"name": "广州市", "province": "广东省", "lat": 23.1291, "lng": 113.2644, "level": "city"},
  {"name": "深圳市", "province": "广东省", "lat": 22.5431, "lng": 114.0579, "level": "city"},
  {"name": "杭州市", "province": "浙江省", "lat": 30.2741, "lng": 120.1551, "level": "city"},
  {"name": "南京市", "province": "江苏省", "lat": 32.0603, "lng": 118.7969, "level": "city"},
  {"name": "成都市", "province": "四川省", "lat": 30.5728, "lng": 104.0668, "level": "city"},
  {"name": "武汉市", "province": "湖北省", "lat": 30.5928, "lng": 114.3055, "level": "city"},
  {"name": "西安市", "province": "陕西省", "lat": 34.3416, "lng": 108.9398, "level": "city"},
  {"name": "重庆市", "province": "重庆市", "lat": 29.4316, "lng": 106.9123, "level": "province"},
  {"name": "天津市", "province": "天津市", "lat": 39.3434, "lng": 117.3616, "level": "province"},
  {"name": "苏州市", "province": "江苏省", "lat": 31.2989, "lng": 120.5853, "level": "city"},
  {"name": "长沙市", "province": "湖南省", "lat": 28.2278, "lng": 112.9388, "level": "city"},
  {"name": "郑州市", "province": "河南省", "lat": 34.7466, "lng": 113.6254, "level": "city"},
  {"name": "青岛市", "province": "山东省", "lat": 36.0986, "lng": 120.3719, "level": "city"},
  {"name": "大连市", "province": "辽宁省", "lat": 38.9140, "lng": 121.6147, "level": "city"},
  {"name": "宁波市", "province": "浙江省", "lat": 29.8683, "lng": 121.5440, "level": "city"},
  {"name": "厦门市", "province": "福建省", "lat": 24.4798, "lng": 118.0819, "level": "city"},
  {"name": "福州市", "province": "福建省", "lat": 26.0745, "lng": 119.2965, "level": "city"},
  {"name": "无锡市", "province": "江苏省", "lat": 31.4912, "lng": 120.3124, "level": "city"},
  {"name": "合肥市", "province": "安徽省", "lat": 31.8206, "lng": 117.2272, "level": "city"},
  {"name": "昆明市", "province": "云南省", "lat": 25.0389, "lng": 102.7183, "level": "city"},
  {"name": "哈尔滨市", "province": "黑龙江省", "lat": 45.7736, "lng": 126.6617, "level": "city"},
  {"name": "济南市", "province": "山东省", "lat": 36.6512, "lng": 117.1201, "level": "city"},
  {"name": "沈阳市", "province": "辽宁省", "lat": 41.8057, "lng": 123.4315, "level": "city"},
  {"name": "石家庄市", "province": "河北省", "lat": 38.0428, "lng": 114.5149, "level": "city"},
  {"name": "南昌市", "province": "江西省", "lat": 28.6820, "lng": 115.8579, "level": "city"},
  {"name": "太原市", "province": "山西省", "lat": 37.8706, "lng": 112.5489, "level": "city"},
  {"name": "长春市", "province": "吉林省", "lat": 43.8171, "lng": 125.3235, "level": "city"},
  {"name": "兰州市", "province": "甘肃省", "lat": 36.0611, "lng": 103.8343, "level": "city"},
  {"name": "贵阳市", "province": "贵州省", "lat": 26.6477, "lng": 106.6302, "level": "city"},
  {"name": "海口市", "province": "海南省", "lat": 20.0444, "lng": 110.1999, "level": "city"},
  {"name": "银川市", "province": "宁夏回族自治区", "lat": 38.4872, "lng": 106.2309, "level": "city"},
  {"name": "西宁市", "province": "青海省", "lat": 36.6171, "lng": 101.7782, "level": "city"},
  {"name": "呼和浩特市", "province": "内蒙古自治区", "lat": 40.8414, "lng": 111.7519, "level": "city"},
  {"name": "乌鲁木齐市", "province": "新疆维吾尔自治区", "lat": 43.8256, "lng": 87.6168, "level": "city"},
  {"name": "拉萨市", "province": "西藏自治区", "lat": 29.6525, "lng": 91.1721, "level": "city"},
  {"name": "香港", "province": "香港特别行政区", "lat": 22.3193, "lng": 114.1694, "level": "special"},
  {"name": "澳门", "province": "澳门特别行政区", "lat": 22.1987, "lng": 113.5439, "level": "special"}
]
